Shipping Address,Cleaned_Address,Latitude,Longitude
"Jumia- Pargo- Pickup station - Cairo, Egypt",Cairo,30.0443879,31.2357257
"Point 192 - Alexandria, Egypt",Alexandria,44.8349533,8.7450304
"Giza Pyramids, Giza, Egypt",Giza Pyramids,29.9707813,31.1242335
"Aswan High Dam, Aswan, Egypt",Aswan High Dam,23.9704099,32.8748956
"Luxor Temple, Luxor, Egypt",Luxor Temple,25.699525,32.6390695
"Hurghada Marina, Red Sea, Egypt",Hurghada Marina,27.2436353,33.8488682
